City,Cloudiness,Country,Date,Humidity,Lat,Lng,Max Temp,Wind Speed
saint-georges,18.0,CA,1574525583,74,46.12,-70.67,25,11.01
alta floresta,20.0,BR,1574525583,66,-9.87,-56.08,86,4.7
siguiri,0.0,GN,1574525583,14,11.42,-9.17,98.4,7.58
saskylakh,99.0,RU,1574525583,99,71.97,114.09,-20.81,2.55
mbandaka,10.0,CD,1574525583,65,0.05,18.26,82.58,2.91
qaanaaq,100.0,GL,1574525584,69,77.48,-69.36,7.52,10.71
rikitea,14.0,PF,1574525584,67,-23.12,-134.97,71.55,8.86
clyde,100.0,NZ,1574525584,74,-45.19,169.32,68,3
bluff,0.0,AU,1574525584,80,-23.58,149.07,69.42,6.8
tabuk,22.0,PH,1574525584,92,17.41,121.44,74.01,2.33
ushuaia,100.0,AR,1574525378,32,-54.81,-68.31,66.2,24.16
busselton,36.0,AU,1574525584,47,-33.64,115.35,60.01,12.57
port huron,75.0,US,1574525417,74,42.98,-82.44,37,6.93
kokopo,12.0,PG,1574525585,75,-4.34,152.27,81.72,19.82
punta arenas,100.0,CL,1574525585,62,-53.16,-70.91,68,17.22
mount gambier,75.0,AU,1574525585,93,-37.83,140.78,44.6,3.53
ancud,75.0,CL,1574525585,67,-41.87,-73.83,60.8,18.34
kalmanka,100.0,RU,1574525585,60,52.9,83.53,6.8,8.95
hobart,75.0,AU,1574525586,50,-42.88,147.33,51.8,9.17
saint-philippe,90.0,CA,1574525586,63,45.36,-73.48,32,13.87
vila franca do campo,20.0,PT,1574525586,82,37.72,-25.43,68,16.11
upernavik,100.0,GL,1574525586,58,72.79,-56.15,19.54,9.86
pevek,100.0,RU,1574525586,92,69.7,170.27,-8.16,5.77
provideniya,99.0,RU,1574525587,86,64.42,-173.23,4.71,7.83
butaritari,56.0,KI,1574525587,66,3.07,172.79,83.39,10.09
mahebourg,75.0,MU,1574525587,74,-20.41,57.7,82.4,3.36
port hardy,90.0,CA,1574525587,100,50.7,-127.42,44.6,9.17
mataura,100.0,NZ,1574525587,88,-46.19,168.86,57.99,15.99
airai,0.0,TL,1574525587,69,-8.93,125.41,67.6,2.75
sinnamary,90.0,GF,1574525588,76,5.38,-52.96,82.92,13.09
luang prabang,1.0,LA,1574525588,85,19.89,102.14,63.91,1.52
hithadhoo,65.0,MV,1574525441,75,-0.6,73.08,83.55,8.77
kimbe,0.0,PG,1574525588,83,-5.56,150.15,70.16,3.22
torbat-e jam,100.0,IR,1574525588,65,35.24,60.63,36.81,4.92
tuktoyaktuk,90.0,CA,1574525588,84,69.44,-133.03,5,4.7
atuona,5.0,PF,1574525588,76,-9.8,-139.03,79.12,15.75
santiago de chuco,88.0,PE,1574525588,61,-8.15,-78.17,55.09,4.52
itupiranga,90.0,BR,1574525589,94,-5.13,-49.33,77,3.36
port alfred,81.0,ZA,1574525589,85,-33.59,26.89,69.01,3
chokurdakh,92.0,RU,1574525444,98,70.62,147.9,-22.18,8.93
broome,20.0,GB,1574525589,87,52.47,1.45,50,9.17
jalu,92.0,LY,1574525589,17,29.03,21.55,75.83,7.67
cabedelo,40.0,BR,1574525589,58,-6.97,-34.84,86,11.41
thompson,90.0,CA,1574525589,92,55.74,-97.86,28.4,5.82
marshall,90.0,US,1574525590,81,39.12,-93.2,36,9.17
albany,40.0,US,1574525497,51,42.65,-73.75,39.99,10.29
yuzhno-kurilsk,10.0,RU,1574525590,87,44.03,145.86,47.82,21.27
constitucion,5.0,MX,1574525590,37,23.99,-104.67,62.01,1.7
hermanus,66.0,ZA,1574525590,76,-34.42,19.24,68,11.01
krasnaya polyana,100.0,KZ,1574525590,77,49.24,73.02,5,6.71
puerto ayora,40.0,EC,1574525590,64,-0.74,-90.35,73.4,14.99
lavrentiya,100.0,RU,1574525590,76,65.58,-170.99,18.9,14.27
hilo,75.0,US,1574525591,83,19.71,-155.08,69.8,8.05
talara,75.0,PE,1574525427,100,-4.58,-81.27,62.6,18.34
tasiilaq,20.0,GL,1574525438,73,65.61,-37.64,24.8,2.24
uray,98.0,RU,1574525651,97,60.13,64.8,21.38,4.29
nanortalik,6.0,GL,1574525651,67,60.14,-45.24,34.14,8.57
sitka,0.0,US,1574525651,78,37.17,-99.65,37.99,10
tiksi,87.0,RU,1574525651,88,71.64,128.87,-23.37,5.14
jamestown,0.0,AU,1574525652,74,-33.21,138.6,52.11,6.24
kruisfontein,38.0,ZA,1574525652,57,-34,24.73,67.42,14.79
avarua,100.0,CK,1574525652,100,-21.21,-159.78,71.6,3.36
ternova,0.0,UA,1574525652,35,50.18,36.68,26.6,11.18
port elizabeth,1.0,US,1574525652,45,39.31,-74.98,45,2.39
valle de allende,76.0,MX,1574525652,48,26.94,-105.39,53.38,6.42
saint-francois,75.0,FR,1574525652,81,46.42,3.91,51.8,8.05
makakilo city,90.0,US,1574525652,94,21.35,-158.09,78.8,5.82
evensk,78.0,RU,1574525653,71,61.92,159.24,0.54,8.68
pangnirtung,90.0,CA,1574525653,92,66.15,-65.72,30.2,4.7
cape town,75.0,ZA,1574525442,64,-33.93,18.42,68,13.87
guerrero negro,73.0,MX,1574525653,64,27.97,-114.04,61.41,3.27
japura,100.0,ID,1574525653,95,-0.42,102.29,74.7,2.21
nikolskoye,20.0,RU,1574525653,73,59.7,30.79,21,8.95
barrow,38.0,AR,1574525653,18,-38.31,-60.23,73.87,12.33
guiratinga,17.0,BR,1574525654,35,-16.35,-53.76,95.86,3.78
kaeo,42.0,NZ,1574525654,100,-35.1,173.78,57.99,9.6
belfast,100.0,GB,1574525654,93,54.6,-5.93,50,9.17
qaqortoq,20.0,GL,1574525654,49,60.72,-46.03,23,3.36
rocha,12.0,UY,1574525546,55,-34.48,-54.34,66.52,12.33
faya,75.0,SA,1574525654,82,18.39,42.45,62.6,4.7
namibe,26.0,AO,1574525655,65,-15.19,12.15,77,14.99
isangel,100.0,VU,1574525655,68,-19.55,169.27,69.8,4.7
kapaa,75.0,US,1574525597,78,22.08,-159.32,78.8,16.11
khatanga,98.0,RU,1574525655,99,71.98,102.47,-15.83,3.33
sai buri,40.0,TH,1574525655,100,6.7,101.62,75.2,8.05
east hemet,1.0,US,1574525655,71,33.74,-116.94,61,4.7
leirvik,100.0,NO,1574525656,93,59.78,5.5,46.99,3.36
hastings,0.0,NZ,1574525473,83,-39.64,176.84,57.24,2.68
kaka,62.0,TM,1574525656,39,37.35,59.62,30.29,10.2
ust-nera,92.0,RU,1574525656,92,64.57,143.24,-36.49,3.4
buraydah,0.0,SA,1574525656,60,26.33,43.97,69.8,5.82
new norfolk,75.0,AU,1574525656,50,-42.78,147.06,51.8,9.17
hami,0.0,CN,1574525656,32,42.84,93.51,16.43,2.8
hansot,100.0,IN,1574525656,48,21.59,72.81,79.11,6.46
georgetown,40.0,GY,1574525657,83,6.8,-58.16,82.4,6.93
beringovskiy,0.0,RU,1574525657,82,63.05,179.32,7.57,15.79
ozernovskiy,100.0,RU,1574525657,84,51.5,156.52,30.56,20.29
bredasdorp,33.0,ZA,1574525586,43,-34.53,20.04,73.4,25.28
carnarvon,0.0,ZA,1574525657,6,-30.97,22.13,85.06,16.4
san patricio,1.0,PY,1574525657,56,-26.98,-56.83,84.02,10.27
leningradskiy,92.0,RU,1574525657,96,69.38,178.42,-3.8,21.23
umm lajj,0.0,SA,1574525657,46,25.02,37.27,73.49,5.28
kavieng,100.0,PG,1574525658,75,-2.57,150.8,81.63,8.52
hwange,100.0,ZW,1574525658,36,-18.35,26.5,91.62,7.45
wad rawah,2.0,SD,1574525658,20,15.16,33.13,88.12,10.71
rio cuarto,40.0,AR,1574525658,63,-33.13,-64.35,66.2,20.8
benjamin aceval,75.0,PY,1574525658,52,-24.97,-57.57,89.6,11.41
bambous virieux,75.0,MU,1574525658,78,-20.34,57.76,80.6,3.36
samarai,22.0,PG,1574525658,89,-10.62,150.67,71.42,5.64
cherskiy,100.0,RU,1574525659,96,68.75,161.3,-23.33,7.94
rio gallegos,79.0,AR,1574525520,32,-51.62,-69.22,66.2,36.91
tuatapere,61.0,NZ,1574525721,88,-46.13,167.69,57.99,15.99
panjakent,75.0,UZ,1574525721,80,39.5,67.61,35.6,4.7
vardo,1.0,US,1574525721,60,39.62,-77.74,42.01,6.93
sao luis de montes belos,85.0,BR,1574525722,58,-16.52,-50.37,84.51,6.26
cabo san lucas,5.0,MX,1574525607,73,22.89,-109.91,71.01,2.33
luganville,100.0,VU,1574525722,64,-15.51,167.18,75.2,8.05
dikson,84.0,RU,1574525722,98,73.51,80.55,-5.4,6.89
haines junction,5.0,CA,1574525722,97,60.75,-137.51,20.39,9.71
moron,52.0,HT,1574525723,62,18.56,-74.26,81.18,3.29
jumla,100.0,NP,1574525723,67,29.28,82.18,43.3,3.06
kodiak,40.0,US,1574525723,64,39.95,-94.76,36,6.93
zykovo,86.0,RU,1574525723,63,55.24,40.35,12,3
laramie,1.0,US,1574525659,68,41.31,-105.59,41,12.75
nemuro,20.0,JP,1574525724,86,43.32,145.57,48.65,18.81
iqaluit,75.0,CA,1574525724,68,63.75,-68.52,28.4,10.29
vaini,0.0,IN,1574525724,64,15.34,74.49,67.93,7.52
ahipara,100.0,NZ,1574525724,100,-35.17,173.16,57.99,17.27
norman wells,90.0,CA,1574525724,92,65.28,-126.83,15.8,2.19
aranos,1.0,NA,1574525724,10,-24.14,19.11,93.4,6.08
satoraljaujhely,40.0,HU,1574525725,93,48.4,21.67,48.2,2.24
takab,0.0,IR,1574525725,64,36.4,47.11,30.72,3.6
altay,0.0,CN,1574525725,31,47.83,88.13,-2.16,3.49
puerto escondido,20.0,MX,1574525725,69,15.86,-97.07,82.4,2.3
muroto,0.0,JP,1574525725,80,33.37,134.14,55.99,4.27
iquitos,90.0,PE,1574525726,88,-3.75,-73.25,75.2,16.11
tahe,6.0,CN,1574525726,81,52.34,124.71,-3.91,9.82
lebu,75.0,ET,1574525726,72,8.96,38.73,64.4,13.87
ponta do sol,18.0,BR,1574525726,62,-20.63,-46,81,6.73
namatanai,93.0,PG,1574525726,71,-3.66,152.44,81.46,8.97
lydenburg,51.0,ZA,1574525726,62,-25.1,30.46,75.61,9.55
benghazi,16.0,LY,1574525726,42,32.12,20.07,72.14,8.81
gamba,28.0,CN,1574525727,61,28.28,88.52,28.87,2.48
katsuura,20.0,JP,1574525727,93,33.93,134.5,53.6,8.05
egvekinot,0.0,RU,1574525727,77,66.32,-179.17,-6.95,9.13
havelock,90.0,US,1574525727,71,34.88,-76.9,60.8,9.17
brae,92.0,GB,1574525727,87,60.4,-1.35,48.2,12.75
lamu,74.0,CN,1574525727,66,35.77,102.37,19.49,6.29
torres,63.0,BR,1574525728,79,-29.34,-49.73,68.49,25.55
truth or consequences,1.0,US,1574525728,69,33.13,-107.25,44.01,5.82
codajas,40.0,BR,1574525728,52,-3.84,-62.06,90.36,4.14
sobolevo,100.0,RU,1574525729,34,54.43,31.9,24.03,12.59
east london,75.0,ZA,1574525729,88,-33.02,27.91,69.8,9.17
salinopolis,100.0,BR,1574525729,77,-0.61,-47.36,81.64,12.39
atambua,0.0,ID,1574525729,77,-9.11,124.89,75.09,2.15
kidal,0.0,ML,1574525729,13,18.44,1.41,94.26,11.36
atherton,40.0,AU,1574525729,83,-17.27,145.48,71.6,1.12
mayo,20.0,CA,1574525729,85,63.59,-135.9,10.4,2.24
coihaique,100.0,CL,1574525730,54,-45.58,-72.07,59,4.7
pisco,90.0,PE,1574525730,30,-13.71,-76.2,71.6,14.99
omboue,100.0,GA,1574525730,80,-1.57,9.26,83.68,6.06
sur,100.0,OM,1574525730,57,22.57,59.53,74.28,10.51
marsaxlokk,97.0,MT,1574525730,68,35.84,14.54,68,14.99
biak,41.0,ID,1574525730,73,-0.91,122.88,82.58,1.9
morwa,40.0,BW,1574525791,29,-24.44,26.07,91.4,3.36
klaksvik,1.0,FO,1574525791,93,62.23,-6.59,44.6,4.7
kieta,100.0,PG,1574525791,78,-6.22,155.63,79.11,11.68
kyzyl-suu,100.0,KG,1574525791,73,42.34,78,32.58,6.35
belaya rechka,90.0,RU,1574525791,92,43.44,43.54,26.6,2.24
cankuzo,100.0,BI,1574525791,92,-3.22,30.55,66.4,3.4
araouane,0.0,ML,1574525791,8,18.9,-3.53,87.26,6.51
port lincoln,0.0,AU,1574525792,76,-34.72,135.86,53.46,4.36
sorong,100.0,ID,1574525792,97,-0.86,131.25,73.42,0.96
proletariy,100.0,RU,1574525792,40,58.43,31.7,26.8,8.66
mar del plata,100.0,AR,1574525792,60,-46.43,-67.52,59.07,10.45
cairns,40.0,AU,1574525694,83,-16.92,145.77,71.6,1.12
deputatskiy,100.0,RU,1574525792,92,69.3,139.9,-22.95,4.34
uvinza,100.0,TZ,1574525793,95,-5.1,30.39,66.65,5.7
ribeira grande,75.0,PT,1574525793,88,38.52,-28.7,68,21.92
eldorado,87.0,BR,1574525793,74,-24.52,-48.11,80.37,7.72
sao filipe,13.0,CV,1574525793,68,14.9,-24.5,76.59,12.48
arraial do cabo,65.0,BR,1574525793,59,-22.97,-42.02,89.6,11.41
lillooet,40.0,CA,1574525794,65,50.69,-121.94,46.4,17.22
benemerito de las americas,64.0,MX,1574525794,75,16.52,-90.64,78.53,1.63
los llanos de aridane,20.0,ES,1574525794,73,28.66,-17.92,75.2,12.75
zhigansk,100.0,RU,1574525794,95,66.77,123.37,-18.87,8.1
lazaro cardenas,20.0,MX,1574525794,62,28.39,-105.62,54,4.7
faanui,85.0,PF,1574525795,78,-16.48,-151.75,80.33,17.29
nicoya,20.0,CR,1574525795,78,10.15,-85.45,80.6,4.7
kochi,40.0,IN,1574525795,66,9.96,76.25,84.2,8.05
husavik,24.0,CA,1574525795,91,50.56,-96.99,30.99,8.01
fortuna,1.0,US,1574525795,93,40.6,-124.16,43,9.17
lagoa,20.0,PT,1574525795,72,37.14,-8.45,64,11.41
abbeville,100.0,FR,1574525795,81,50.11,1.83,48,6.93
bilibino,67.0,RU,1574525796,100,68.06,166.44,-33.66,0.58
praia da vitoria,20.0,PT,1574525799,77,38.73,-27.07,69.8,23.98
puerto leguizamo,100.0,CO,1574525799,65,-0.19,-74.78,83.12,8.14
ilulissat,75.0,GL,1574525799,54,69.22,-51.1,30.2,13.87
terrace,90.0,CA,1574525800,93,54.52,-128.61,42.8,11.41
port shepstone,40.0,ZA,1574525800,89,-30.74,30.45,74.64,15.35
okha,86.0,RU,1574525802,95,53.59,142.95,23.4,13.44
jati,0.0,PK,1574525805,36,24.35,68.27,78.31,12.03
lompoc,1.0,US,1574525749,87,34.64,-120.46,62.01,6.93
dingle,47.0,PH,1574525805,89,11,122.67,75.47,7.67
union,90.0,US,1574525806,100,34.72,-81.62,59,3.36
beloha,0.0,MG,1574525806,60,-25.17,45.06,76.08,16.22
karratha,100.0,AU,1574525806,65,-20.74,116.85,83.44,14.23
otuzco,20.0,PE,1574525806,73,-7.9,-78.57,69.8,10.29
laguna,75.0,BZ,1574525806,78,16.17,-88.94,82.4,1.05
tabou,64.0,CI,1574525807,62,4.42,-7.36,87.55,7.2
channel-port aux basques,100.0,CA,1574525807,91,47.57,-59.14,36.82,36.46
kirakira,20.0,SB,1574525807,88,-10.46,161.92,74.89,6.49
souillac,71.0,FR,1574525807,93,45.6,-0.6,53.6,9.17
tura,100.0,RU,1574525807,96,64.27,100.22,-15.38,2.77
capreol,90.0,CA,1574525807,80,46.71,-80.92,34,18.34
tomatlan,19.0,MX,1574525808,71,19.93,-105.25,74.71,1.72
mana,0.0,NG,1574525808,9,13.03,5.27,100.36,6.78
schwarzenberg,0.0,DE,1574525812,87,49.27,12.9,48,10.29
atbasar,82.0,KZ,1574525812,97,51.81,68.36,0.68,5.99
carutapera,100.0,BR,1574525812,77,-1.2,-46.02,81.72,11.5
chunoyar,100.0,RU,1574525812,91,57.45,97.32,7.65,13.2
camapua,48.0,BR,1574525812,37,-19.53,-54.04,92.39,6.06
klyuchi,87.0,RU,1574525873,80,52.25,79.17,5.09,7.54
paka,35.0,CF,1574525873,44,4.15,15.03,85.71,1.63
wajima,100.0,JP,1574525873,72,37.4,136.9,61.7,5.44
paamiut,100.0,GL,1574525873,66,61.99,-49.67,32.83,12.39
hamilton,1.0,CA,1574525607,69,43.26,-79.87,39.99,9.17
labuhan,99.0,ID,1574525873,94,-2.54,115.51,74.08,1.66
palmer,0.0,AU,1574525873,81,-34.85,139.16,55,6.93
longyearbyen,75.0,NO,1574525874,67,78.22,15.63,19.4,9.17
yar-sale,63.0,RU,1574525874,96,66.83,70.83,-8.99,9.08
aklavik,20.0,CA,1574525874,84,68.22,-135.01,6.8,3.36
mednogorskiy,0.0,RU,1574525874,52,43.92,41.19,35.56,3.69
qingdao,90.0,CN,1574525612,93,36.09,120.35,62.6,6.71
almaznyy,0.0,RU,1574525874,53,48.03,40.04,26.6,20.13
kavaratti,100.0,IN,1574525874,76,10.57,72.64,83.75,10.78
harper,1.0,US,1574525874,66,30.3,-99.24,61,7.16
bastia,90.0,IT,1574525875,82,44.6,8.98,59,19.46
along,100.0,IN,1574525875,97,28.17,94.8,61.86,0.69
torbay,90.0,CA,1574525875,100,47.66,-52.73,41,18.34
kemi,90.0,FI,1574525875,85,65.74,24.56,32,5.82
adeje,94.0,NG,1574525875,58,5.68,5.76,89.13,4.29
vilhena,75.0,BR,1574525876,69,-12.74,-60.15,82.4,8.05
port blair,0.0,IN,1574525876,68,11.67,92.75,82.47,12.39
puqi,0.0,CN,1574525876,74,29.72,113.88,58.44,2.44
sorland,100.0,NO,1574525876,79,67.67,12.69,45.61,4.63
rio grande,75.0,BR,1574525876,53,-32.03,-52.1,75.2,17.22
golden,5.0,US,1574525577,66,39.76,-105.22,41,4.54
chuy,1.0,UY,1574525877,53,-33.69,-53.46,69.03,13.53
hualmay,49.0,PE,1574525877,56,-11.1,-77.61,72.5,8.79
quatre cocos,75.0,MU,1574525877,78,-20.21,57.76,80.6,3.36
prainha,100.0,BR,1574525877,79,-1.8,-53.48,77.54,5.68
camacha,20.0,PT,1574525877,73,33.08,-16.33,73.4,14.99
castro,75.0,CL,1574525877,67,-42.48,-73.76,60.8,18.34
sterling,1.0,US,1574525878,55,39,-77.4,43,5.82
brokopondo,40.0,SR,1574525878,62,5.06,-54.98,90,9.17
clyde river,90.0,CA,1574525878,100,70.47,-68.59,17.6,19.46
la sarre,95.0,CA,1574525710,77,48.8,-79.2,26.87,11.86
aykino,100.0,RU,1574525878,95,62.22,49.99,24.21,6.44
tankhoy,97.0,RU,1574525878,73,51.55,105.12,8.98,6.98
ipameri,76.0,BR,1574525878,61,-17.72,-48.16,79.84,9.33
hayden,90.0,US,1574525657,100,47.77,-116.79,30.2,6.93
ovalle,0.0,CL,1574525879,49,-30.6,-71.2,69.4,8.79
salinas,1.0,US,1574525879,81,36.67,-121.66,53.01,8.05
port moresby,0.0,PG,1574525879,74,-9.47,147.16,78.24,8.9
sikeston,90.0,US,1574525879,93,36.88,-89.59,43,8.97
skibbereen,90.0,IE,1574525880,87,51.55,-9.27,46.4,12.75
nhulunbuy,0.0,AU,1574525880,78,-12.18,136.78,78.8,4.7
dunedin,100.0,NZ,1574525880,92,-45.87,170.5,54,7
tumpat,90.0,MY,1574525880,94,6.2,102.17,77,5.82
muisne,75.0,EC,1574525880,70,0.61,-80.02,84.2,5.82
grindavik,75.0,IS,1574525880,93,63.84,-22.43,41,3.36
alofi,100.0,NU,1574525880,94,-19.06,-169.92,75.2,5.82
geraldton,90.0,CA,1574525881,79,49.72,-86.95,26.6,10.29
bathsheba,40.0,BB,1574525881,70,13.22,-59.52,86,14.99
dzhebariki-khaya,100.0,RU,1574525881,98,62.22,135.8,-25.51,2.46
mahon,90.0,IE,1574525941,87,51.89,-8.4,46.99,12.75
broken hill,0.0,AU,1574525941,37,-31.97,141.45,66.2,18.34
saint-joseph,100.0,FR,1574525941,87,43.56,6.97,57.2,5.82
college,90.0,US,1574525941,92,64.86,-147.8,24.8,2.59
eureka,1.0,US,1574525942,93,40.8,-124.16,44.01,3.36
peniche,40.0,PT,1574525942,71,39.36,-9.38,60.01,10.29
jever,75.0,DE,1574525924,81,53.57,7.9,46.99,18.34
oussouye,57.0,SN,1574525942,30,12.49,-16.54,96.8,6.93
solnechnyy,0.0,RU,1574525942,81,50.72,136.64,13.33,3.6
yucca valley,1.0,US,1574525942,70,34.12,-116.41,60.8,5.82
ardabil,75.0,IR,1574525943,92,38.25,48.3,28.4,11.41
plettenberg bay,17.0,ZA,1574525943,69,-34.05,23.37,64.89,1.41
bontang,100.0,ID,1574525943,76,0.12,117.47,82,5.44
gradinari,90.0,RO,1574525943,100,44.39,25.82,35.01,8.05
guilin,40.0,CN,1574525943,93,25.28,110.29,60.8,2.24
manado,40.0,ID,1574525943,94,1.49,124.85,77,2.24
chara,40.0,GR,1574525944,82,39.42,22.43,60.8,6.93
ukiah,1.0,US,1574525690,93,39.15,-123.21,50,3.36
tithorea,79.0,GR,1574525944,78,38.58,22.67,59,3
tukan,99.0,RU,1574525944,97,53.84,57.45,11.48,3.24
chandbali,0.0,IN,1574525944,73,20.77,86.74,71.11,3.58
palana,100.0,RU,1574525944,92,59.08,159.95,16.07,8.55
mount isa,22.0,AU,1574525944,25,-20.73,139.49,86,11.41
alexandria,88.0,RO,1574525650,94,43.97,25.33,37,1.01
sedhiou,0.0,SN,1574525945,34,12.71,-15.56,96.8,6.93
minatitlan,40.0,MX,1574525945,83,19.39,-104.05,87.8,1.74
waingapu,0.0,ID,1574525945,71,-9.65,120.26,83.34,4.5
noumea,20.0,NC,1574525826,77,-22.28,166.46,75.99,4.7
amarpur,0.0,IN,1574525945,78,23.52,91.65,66.09,1.92
saint-pierre,99.0,FR,1574525945,87,48.95,4.24,46.4,9.17
san cristobal,27.0,HN,1574525946,74,14.68,-86.92,73.58,3.47
osmena,87.0,PH,1574525946,85,12.17,124.59,80.17,9.46
safonovo,100.0,RU,1574525946,36,55.11,33.24,23.63,7.74
fairbanks,90.0,US,1574525794,92,64.84,-147.72,24.01,2.46
cidreira,96.0,BR,1574525946,74,-30.17,-50.22,67.75,24.29
saint george,40.0,GR,1574525946,82,39.45,22.34,60.8,6.93
nueve de julio,78.0,AR,1574525758,43,-31.67,-68.39,81.21,15.48
inhambane,40.0,MZ,1574525946,78,-23.87,35.38,82.4,13.87
todos santos,5.0,MX,1574525947,68,23.45,-110.23,75,1.48
ballia,67.0,IN,1574525947,37,25.76,84.15,72,4.21
waipawa,0.0,NZ,1574525947,86,-39.94,176.59,53.01,2.89
blagoyevo,91.0,RU,1574525947,97,63.37,47.92,26.11,4.03
galle,18.0,GN,1574525947,36,10.08,-12.83,89.71,5.19
araguari,44.0,BR,1574525668,62,-18.65,-48.19,81.14,6.06
batemans bay,99.0,AU,1574525947,79,-35.71,150.18,55.99,7
lagdo,34.0,CM,1574525947,33,9.06,13.67,91.4,4.7
huarmey,2.0,PE,1574525948,53,-10.07,-78.15,73.8,7.99
hobyo,47.0,SO,1574525948,73,5.35,48.53,82.22,19.04
komsomolskiy,100.0,RU,1574525948,89,67.55,63.78,8.33,3.6
yarada,0.0,IN,1574525948,66,17.65,83.27,79.41,11.01
inuvik,90.0,CA,1574525948,84,68.36,-133.71,6.8,2.84
antofagasta,20.0,CL,1574525948,77,-23.65,-70.4,68,17.22
coquimbo,90.0,CL,1574525948,68,-29.95,-71.34,66.2,6.93
sangamner,32.0,IN,1574525949,60,19.57,74.2,71.35,4.25
westerland,75.0,NL,1574525949,93,52.89,4.93,46.4,14.99
bethel,90.0,US,1574526009,92,60.79,-161.76,19.4,6.93
quang ngai,28.0,VN,1574526009,80,15.12,108.8,73.9,7.92
victoria,75.0,BN,1574526009,83,5.28,115.24,78.8,3.36
guapiacu,40.0,BR,1574526010,41,-20.8,-49.22,91.4,3.36
canutama,76.0,BR,1574525829,52,-6.53,-64.38,90.77,3.87
bowen,0.0,AU,1574526010,88,-20.01,148.25,69.01,4.7
acapulco,40.0,MX,1574526011,78,16.86,-99.88,82.4,4.7
vanimo,100.0,PG,1574526011,79,-2.67,141.3,84.27,20.09
bitung,40.0,ID,1574526011,94,1.44,125.19,77,2.24
luderitz,0.0,NA,1574526011,82,-26.65,15.16,60.35,22.46
el alto,75.0,BO,1574526012,71,-16.5,-68.19,51.8,10.29
tamandare,100.0,BR,1574526012,98,-8.28,-70.75,70.86,5.32
mackay,75.0,CA,1574526012,52,53.65,-115.58,44.6,9.17
vao,100.0,EE,1574526012,48,59.1,26.19,26.11,7.16
okhotsk,100.0,RU,1574526012,94,59.36,143.24,6.71,25.55
puerto carreno,20.0,CO,1574526012,62,6.19,-67.49,87.8,12.75
penzance,40.0,GB,1574526012,100,50.12,-5.53,52,5.82
muravlenko,0.0,RU,1574526012,91,63.79,74.5,-3.77,10.58
kalispell,90.0,US,1574526013,86,48.2,-114.32,28.99,1.57
quime,70.0,BO,1574526013,57,-16.98,-67.22,63.48,5.79
westport,1.0,US,1574525784,41,41.14,-73.36,44.01,8.05
yellowknife,90.0,CA,1574526013,100,62.45,-114.38,23,5.82
avera,75.0,US,1574526013,77,33.19,-82.53,68,5.82
arandis,0.0,NA,1574526013,76,-22.42,14.98,66,14
baykit,100.0,RU,1574526013,96,61.68,96.39,3.67,5.95
lorengau,88.0,PG,1574526014,76,-2.02,147.27,83.26,10.42
tezu,100.0,IN,1574526014,77,27.93,96.16,65.64,1.61
jambi,100.0,ID,1574526014,95,-1.6,103.62,74.75,1.39
pangody,0.0,RU,1574526014,96,65.85,74.49,-10.37,9.66
flinders,75.0,AU,1574526014,93,-34.58,150.85,64.99,2.24
auki,0.0,NG,1574526014,11,12.18,6.51,96.55,10.04
kaberamaido,100.0,UG,1574526014,98,1.76,33.16,65.37,4.18
severo-yeniseyskiy,100.0,RU,1574526015,90,60.37,93.04,6.21,15.19
ust-maya,100.0,RU,1574526015,92,60.42,134.54,-17.55,7.14
cravo norte,37.0,CO,1574526015,63,6.3,-70.2,86.09,9.82
tadine,77.0,NC,1574526015,68,-21.55,167.88,69.87,11.63
nichinan,65.0,JP,1574526015,80,31.65,131.31,70.11,15.05
sistranda,75.0,NO,1574526015,75,63.73,8.83,46,9.17
arkhangelsk,90.0,RU,1574526015,92,64.54,40.54,24.8,4.47
severo-kurilsk,100.0,RU,1574526016,97,50.68,156.12,25.9,8.93
caxito,20.0,BR,1574526016,59,-22.65,-42.51,89.6,13.87
srednekolymsk,91.0,RU,1574526016,98,67.46,153.71,-20.31,5.17
adrar,0.0,DZ,1574526016,28,27.87,-0.29,80.6,19.46
ushtobe,100.0,KZ,1574526016,52,45.25,77.98,24.39,0.85
lasa,20.0,CY,1574526016,52,34.92,32.53,66.2,4.7
porto walter,100.0,BR,1574526016,94,-8.27,-72.74,73.31,7.49
half moon bay,20.0,US,1574526017,87,37.46,-122.43,53.01,6.15
christchurch,92.0,NZ,1574526001,93,-43.53,172.64,55.99,13.87
itarantim,38.0,BR,1574526017,47,-15.65,-40.06,88.32,6.8
muli,100.0,CN,1574526017,83,28.08,109.56,59.52,1.57
pocinhos,20.0,BR,1574526017,42,-7.08,-36.06,86,5.82
mega,100.0,ET,1574526017,82,4.06,38.32,69.76,8.23
zhuhai,40.0,CN,1574526017,23,40.71,112.04,26.6,13.42
tautira,75.0,PF,1574526078,73,-17.73,-149.15,77,4.7
minna,0.0,NG,1574526078,18,9.62,6.55,99.39,3.8
mehamn,15.0,NO,1574526078,91,71.03,27.85,29.53,11.21
awbari,0.0,LY,1574526078,11,26.59,12.77,77.2,12.46
sigli,0.0,ID,1574526079,74,5.38,95.96,82.99,9.89
walvis bay,0.0,NA,1574526079,76,-22.95,14.51,66,14
aksu,67.0,KZ,1574526079,84,52.04,76.93,5,6.71
opuwo,0.0,NA,1574526079,11,-18.06,13.84,94.93,5.53
kijang,40.0,KR,1574526079,81,35.24,129.21,51.8,5.82
kazachinskoye,100.0,RU,1574526079,90,57.69,93.28,9.39,12.84
kamina,100.0,CD,1574526080,94,-8.74,25,69.69,2.82
wuwei,100.0,CN,1574526080,30,37.93,102.64,22.69,5.53
abrau-dyurso,0.0,RU,1574526080,47,44.7,37.6,37.4,20.13
dhidhdhoo,100.0,MV,1574526080,79,6.88,73.1,83.43,17.22
murgab,75.0,TM,1574526080,34,37.5,61.97,41,9.17
mazamari,46.0,PE,1574526080,66,-11.33,-74.53,76.39,3.02
abengourou,15.0,CI,1574526081,37,6.73,-3.5,94.75,3.71
pundaguitan,33.0,PH,1574526081,73,6.37,126.17,83.34,7
hofn,20.0,IS,1574526081,69,64.25,-15.21,37.4,4.7
dicabisagan,41.0,PH,1574526081,88,17.08,122.42,76.89,5.55
flin flon,75.0,CA,1574526081,92,54.77,-101.88,28.4,9.17
aksarka,34.0,RU,1574526081,92,66.56,67.8,-7.6,7.47
ostrovnoy,100.0,RU,1574526081,92,68.05,39.51,23.86,16.73
kudahuvadhoo,100.0,MV,1574526082,75,2.67,72.89,83.86,10.63
poum,40.0,MK,1574526082,75,41.28,20.71,46.4,3.36
muros,75.0,ES,1574526082,100,42.77,-9.06,61,5.82
soller,100.0,DE,1574526082,75,50.73,6.56,50,3.36
pochutla,20.0,MX,1574526082,62,15.74,-96.47,87.8,9.89
svetlogorsk,40.0,RU,1574526083,53,53.14,59.15,24.8,2.24
coffs harbour,99.0,AU,1574526083,83,-30.3,153.13,69.8,6.93
ternate,40.0,PH,1574526083,78,14.29,120.72,80.6,2.24
port hedland,100.0,AU,1574526084,65,-20.31,118.58,80.6,10.29
tongzi,91.0,CN,1574526084,59,28.78,105.09,60.8,5.7
shaghat,0.0,AM,1574526084,64,39.57,45.91,37.4,1.57
vila velha,40.0,BR,1574526084,55,-3.71,-38.6,87.8,13.87
benavente,40.0,ES,1574526084,70,42,-5.67,46.4,11.41
pacific grove,1.0,US,1574526084,62,36.62,-121.92,53.01,6.82
svencionys,100.0,LT,1574526084,49,55.15,26.17,26.08,10.42
saint-augustin,90.0,CA,1574526084,63,45.63,-73.98,33.01,13.87
killybegs,90.0,IE,1574526085,93,54.63,-8.45,48.2,3.36
abu samrah,100.0,SY,1574526085,29,35.3,37.18,59.18,6.08
ngunguru,81.0,NZ,1574526085,88,-35.62,174.5,57.99,1.99
shimoda,100.0,JP,1574526085,94,34.7,138.93,64,1.01
amahai,68.0,ID,1574526085,73,-3.31,129,83.23,5.7
gboko,42.0,NG,1574526085,32,7.32,9,95.74,3.8
houston,1.0,US,1574525897,66,29.76,-95.37,55.99,9.17
juneau,90.0,US,1574525985,87,58.3,-134.42,43,10.29
shingu,6.0,JP,1574526086,73,33.72,135.99,65.89,9.82
tiarei,47.0,PF,1574525859,78,-17.53,-149.33,77,4.7
praxedis guerrero,20.0,MX,1574526086,61,31.37,-106.02,50,3.36
kikwit,100.0,CD,1574526086,73,-5.04,18.82,76.39,3.4
selje,54.0,NO,1574526086,92,62.05,5.35,44.6,12.75
alcantara,100.0,PH,1574526086,88,9.97,123.41,76.6,4.59
mitsamiouli,20.0,KM,1574526146,66,-11.38,43.28,86,12.75
ondangwa,0.0,NA,1574526147,12,-17.91,15.98,96.76,9.24
barberton,75.0,SZ,1574526147,61,-25.78,31.05,87.01,9.17
havre-saint-pierre,90.0,CA,1574526147,98,50.23,-63.6,33.8,10.29
florianopolis,75.0,BR,1574526048,74,-27.6,-48.55,81,17.22
ornskoldsvik,100.0,SE,1574526147,100,63.29,18.72,37.4,5.82
san quintin,30.0,PH,1574526147,91,17.54,120.52,73.47,2.77
te anau,100.0,NZ,1574526147,91,-45.41,167.72,54.66,5.59
korsor,100.0,DK,1574526148,100,55.33,11.14,45,17.22
kaitangata,100.0,NZ,1574526148,82,-46.28,169.85,57.11,11.63
lata,58.0,IN,1574526148,83,30.78,78.62,21.49,6.38
nadym,38.0,RU,1574526148,98,65.53,72.51,-5.24,7.63
griffith,0.0,AU,1574526148,30,-34.29,146.06,68,11.41
mortka,97.0,RU,1574526148,96,59.33,66.02,19.29,4.83
port macquarie,100.0,AU,1574526149,88,-31.43,152.91,69.8,12.75
lewisporte,90.0,CA,1574525979,100,49.25,-55.06,37,19.46
arauca,75.0,VE,1574526149,74,7.08,-70.76,84.2,4.7
mawlamyine,0.0,MM,1574526149,72,16.49,97.63,77.76,3.56
lusambo,99.0,CD,1574526149,94,-4.97,23.44,69.94,2.62
port-gentil,40.0,GA,1574526149,83,-0.72,8.78,84.2,11.41
narasapur,2.0,IN,1574526150,75,16.45,81.67,73.72,3.87
sabang,5.0,PH,1574526150,93,13.8,121.11,73.62,4.25
touros,40.0,BR,1574526150,55,-5.2,-35.46,87.8,13.87
gilgit,87.0,PK,1574526150,64,35.92,74.31,22.06,3.71
asuncion,75.0,PY,1574526111,52,-25.3,-57.63,89.6,11.41
basoko,100.0,CD,1574526150,72,1.23,23.61,77.85,2.71
narsaq,20.0,GL,1574526150,49,60.91,-46.05,23,3.36
homer,1.0,US,1574526150,80,59.64,-151.54,39,3.36
venice,1.0,US,1574525997,61,27.1,-82.45,81,9.17
acajutla,33.0,SV,1574526151,69,13.59,-89.83,78.8,2.24
sisimiut,100.0,GL,1574526151,74,66.94,-53.67,26.26,16.2
leshukonskoye,99.0,RU,1574526151,96,64.9,45.76,29.95,5.17
lardos,40.0,GR,1574526151,82,36.09,28.02,64.4,2.24
sotouboua,28.0,TG,1574526151,29,8.56,0.98,94.33,6.4
rosario oeste,0.0,BR,1574526152,51,-14.84,-56.43,89.74,5.73
buchanan,75.0,LR,1574526152,79,5.88,-10.05,86,6.55
marawi,51.0,PH,1574526152,91,8,124.29,75.99,5.01
talnakh,30.0,RU,1574526152,76,69.49,88.39,-7.6,11.18
bayji,0.0,IQ,1574526152,23,34.93,43.49,59.23,1.97
olinda,20.0,AU,1574526152,81,-37.84,145.39,55.99,5.82
tazovskiy,16.0,RU,1574526152,95,67.47,78.7,-11.13,11.79
malinovskiy,90.0,RU,1574526153,35,54.15,34.53,23.99,8.61
ambilobe,71.0,MG,1574526153,80,-13.19,49.05,81.18,2.17
kiunga,87.0,PG,1574526153,96,-6.12,141.3,72.7,0.89
kutum,42.0,SD,1574526153,13,14.2,24.66,81,13.6
lima,75.0,PE,1574525992,69,-12.06,-77.04,73.4,12.75
sao miguel do araguaia,100.0,BR,1574526155,72,-13.28,-50.16,77.58,4.23
saldanha,60.0,PT,1574526155,67,41.42,-6.55,49.75,15.86
tuxpan,40.0,MX,1574526155,83,19.56,-103.38,77,3.51
amurzet,14.0,CN,1574526155,76,47.69,131.09,18.27,7.99
la palma,15.0,CO,1574526156,71,5.36,-74.39,77.92,2.77
san juan,78.0,AR,1574526156,43,-31.54,-68.53,81.21,15.48
tokur,100.0,RU,1574526156,97,53.13,132.9,-5.93,8.43
denpasar,40.0,ID,1574526036,83,-8.65,115.22,82.4,3.36
aljezur,43.0,PT,1574526216,62,37.31,-8.8,63,5.01
inskoy,85.0,RU,1574526216,84,54.43,86.44,1.08,8.39
oranjemund,0.0,ZA,1574526217,56,-28.55,16.43,65.98,19.6
gornopravdinsk,100.0,RU,1574526217,96,60.06,69.92,17.22,3.69
erzin,40.0,TR,1574526217,29,36.95,36.2,55.4,6.93
krotovka,0.0,RU,1574526217,51,53.29,51.17,21.07,9.46
kasungu,100.0,MW,1574526217,36,-13.04,33.48,86.81,9.42
pitimbu,40.0,BR,1574526218,55,-7.47,-34.81,86,11.41
vermillion,1.0,US,1574526218,86,42.78,-96.93,37,6.93
takaka,0.0,NZ,1574526218,91,-40.86,172.81,57,1.01
axim,9.0,GH,1574526218,58,4.87,-2.24,88.34,8.43
ambulu,36.0,ID,1574526218,80,-8.35,113.61,81.73,10.36
grand gaube,75.0,MU,1574526218,78,-20.01,57.66,80.6,3.36
impfondo,96.0,CD,1574526183,64,1.62,18.06,84.6,3.51
bogorodskoye,24.0,RU,1574526219,82,52.37,140.44,15.73,5.64
ciudad guayana,55.0,VE,1574526219,57,8.32,-62.69,88.54,4.79
staritsa,98.0,RU,1574526219,39,56.51,34.93,23.54,7.85
hvide sande,100.0,DK,1574526219,87,56.01,8.13,46.99,12.75
manokwari,100.0,ID,1574526219,76,-0.87,134.08,74.35,5.68
libertador general san martin,35.0,AR,1574526220,57,-23.81,-64.79,79.95,5.39
esperance,100.0,AU,1574526220,82,-33.86,121.89,59,4.7
baherden,86.0,TM,1574526220,86,38.44,57.43,28.51,2.77
hudson bay,100.0,CA,1574526220,85,52.86,-102.4,32.56,7.72
bay roberts,90.0,CA,1574526220,100,47.58,-53.28,41,18.34
saint anthony,90.0,US,1574526176,79,43.97,-111.68,27,2.42
nouadhibou,32.0,MR,1574526221,57,20.93,-17.03,77,11.41
oistins,40.0,BB,1574526221,70,13.07,-59.53,86,14.99
clonakilty,90.0,IE,1574526221,87,51.62,-8.87,46.99,12.75
chingirlau,0.0,KZ,1574526221,90,51.09,54.08,21.02,7.07
mokhsogollokh,90.0,RU,1574526221,96,61.4,128.95,-20.97,5.41
altoona,1.0,US,1574526222,64,40.52,-78.39,41,3.36
luanda,40.0,AO,1574526222,69,-8.83,13.24,82.4,11.41
ponta delgada,20.0,PT,1574526222,82,37.73,-25.67,68,16.11
zhezkazgan,12.0,KZ,1574526222,78,47.8,67.71,10.49,0.96
shenkursk,89.0,RU,1574526222,85,62.11,42.91,16.65,5.23
teguise,20.0,ES,1574526222,69,29.06,-13.56,73.4,19.46
kalianget,66.0,ID,1574526222,95,-7.35,109.91,70.66,2.33
merauke,0.0,ID,1574526223,76,-8.49,140.4,75.43,7.05
doha,0.0,QA,1574526223,49,25.29,51.53,73.4,2.24
grafton,11.0,AU,1574526223,77,-29.69,152.93,66.2,4.7
itaituba,40.0,BR,1574526223,74,-4.26,-55.99,86,5.82
meulaboh,97.0,ID,1574526223,78,4.14,96.13,82.22,10.31
arvika,100.0,SE,1574526223,100,59.65,12.59,41,8.05
dese,75.0,IT,1574526223,93,45.53,12.3,55.99,9.17
khonsa,56.0,IN,1574526224,98,26.99,95.51,59.56,2.13
hasaki,75.0,JP,1574526224,100,35.73,140.83,64.4,6.93
alice springs,0.0,AU,1574526224,15,-23.7,133.88,68,3.36
iralaya,75.0,HN,1574526224,94,15,-83.23,77,3.36
roald,10.0,NO,1574526284,92,62.58,6.12,43,12.75
chenzhou,0.0,CN,1574526285,63,25.81,113.03,65.46,1.41
aykhal,90.0,RU,1574526285,90,65.95,111.51,-22,2.24
adamclisi,90.0,RO,1574526285,100,44.08,27.95,50,16.11
yanam,0.0,IN,1574526285,78,16.73,82.22,73.9,3.85
